{"totalCount":"88","recordName":"mytests","records":[{"id":"111","name":"pinmailer","status":false,"command":"sdfsdf","seconds":"4","minutes":"22","hours":"17","dayofmonth":"*","month":"*","dayofweek":"?","year":"","lastrun":"1284645636","runonce":"N"},{"id":"120","name":"tokenorderfeedback","status":true,"command":"sdfsdf","seconds":"86","minutes":"56","hours":"22","dayofmonth":"*","month":"*","dayofweek":"?","year":"","lastrun":"1094645636","runonce":"N"},{"id":"231","name":"tokenimportfeedback","status":false,"command":"sdfsdf","seconds":"124","minutes":"11","hours":"23","dayofmonth":"*","month":"*","dayofweek":"?","year":"","lastrun":"1195115636","runonce":"N"},{"id":"2131","name":"tokenimportfeedback1","status":false,"command":"sdfsdf","seconds":"11","minutes":"11","hours":"23","dayofmonth":"*","month":"*","dayofweek":"?","year":"","lastrun":"1195115636","runonce":"N"},{"id":"2231","name":"tokenimportfeedback2","status":false,"command":"sdfsdf","seconds":"11","minutes":"11","hours":"23","dayofmonth":"*","month":"*","dayofweek":"?","year":"","lastrun":"1195115636","runonce":"N"},{"id":"2331","name":"tokenimportfeedback3","status":false,"command":"sdfsdf","seconds":"11","minutes":"11","hours":"23","dayofmonth":"*","month":"*","dayofweek":"?","year":"","lastrun":"1195115636","runonce":"N"},{"id":"2431","name":"tokenimportfeedback4","status":false,"command":"sdfsdf","seconds":"11","minutes":"11","hours":"23","dayofmonth":"*","month":"*","dayofweek":"?","year":"","lastrun":"1195115636","runonce":"N"},{"id":"2531","name":"tokenimportfeedback5","status":false,"command":"sdfsdf","seconds":"11","minutes":"11","hours":"23","dayofmonth":"*","month":"*","dayofweek":"?","year":"","lastrun":"1195115636","runonce":"N"},{"id":"2631","name":"tokenimportfeedback6","status":false,"command":"sdfsdf","seconds":"11","minutes":"11","hours":"23","dayofmonth":"*","month":"*","dayofweek":"?","year":"","lastrun":"1195115636","runonce":"N"},{"id":"2317","name":"tokenimportfeedback7","status":false,"command":"sdfsdf","seconds":"11","minutes":"11","hours":"23","dayofmonth":"*","month":"*","dayofweek":"?","year":"","lastrun":"1195115636","runonce":"N"}]}